{"type":"FeatureCollection","features":[{"type":"Feature","properties":{"nombre":"Unitel","tipo":"Televisión","facebook":"http://www.unitel.tv/","departamento":"La Paz","localidad":"La Paz","img":"unitel.jpeg"},"geometry":{"type":"Point","coordinates":[-68.12149038,-16.49987828]}},{"type":"Feature","properties":{"nombre":"RTP","tipo":"Televisión","facebook":"http://www.rtpbolivia.com.bo/","localidad":"La Paz","departamento":"La Paz","img":"rtp.png"},"geometry":{"type":"Point","coordinates":[-68.13133666,-16.49939025]},"id":1},{"type":"Feature","properties":{"nombre":"Bolivisión","tipo":"Televisión","facebook":"http://www.redbolivision.tv.bo/","localidad":"La Paz","departamento":"La Paz","img":"bolivision.png"},"geometry":{"type":"Point","coordinates":[-68.13490546,-16.49666089]}},{"type":"Feature","properties":{"nombre":"Bolivia TV","tipo":"Televisión","facebook":"http://www.boliviatv.bo","localidad":"La Paz","departamento":"La Paz","img":"boliviatv.jpeg"},"geometry":{"type":"Point","coordinates":[-68.13212375,-16.49974437]},"id":3},{"type":"Feature","properties":{"nombre":"ATB","tipo":"Televisión","facebook":"https://www.atb.com.bo/","localidad":"La Paz","departamento":"La Paz","img":"atbdig.png"},"geometry":{"type":"Point","coordinates":[-68.12003574,-16.50347758]}},{"type":"Feature","properties":{"nombre":"Red Uno","tipo":"Televisión","facebook":"https://www.reduno.com.bo/","localidad":"La Paz","departamento":"La Paz","img":"reduno.png"},"geometry":{"type":"Point","coordinates":[-68.12568503,-16.51545962]},"id":5},{"type":"Feature","properties":{"nombre":"TV Universitaria","tipo":"Televisión","facebook":"https://www.facebook.com/profile.php?id=100092021334381","localidad":"La Paz","departamento":"La Paz","img":"umsa.jpeg"},"geometry":{"type":"Point","coordinates":[-68.12801676,-16.50730718]},"id":6},{"type":"Feature","properties":{"nombre":"Católica TV","tipo":"Televisión","facebook":"http://www.catolicatelevision.com/","localidad":"La Paz","departamento":"La Paz","img":"ctv.png"},"geometry":{"type":"Point","coordinates":[-68.12167765,-16.501523]}},{"type":"Feature","properties":{"nombre":"Gigavisión","tipo":"Televisión","facebook":"https://www.facebook.com/redgigavisionnoticias/","localidad":"La Paz","departamento":"La Paz","img":"gigavision.jpeg"},"geometry":{"type":"Point","coordinates":[-68.12628033,-16.49715779]}},{"type":"Feature","properties":{"nombre":"Cristo TV","tipo":"Televisión","facebook":"http://www.sccbolivia.com/","localidad":"La Paz","departamento":"La Paz","img":"xto.png"},"geometry":{"type":"Point","coordinates":[-68.12283241,-16.49623923]}},{"type":"Feature","properties":{"nombre":"Cadena A","tipo":"Televisión","facebook":"https://www.facebook.com/cadenaarednacional","localidad":"La Paz","departamento":"La Paz","img":"cadenaa.jpeg"},"geometry":{"type":"Point","coordinates":[-68.13094631,-16.50570473]},"id":10},{"type":"Feature","properties":{"nombre":"PAT","tipo":"Televisión","facebook":"https://www.facebook.com/patboliviahd","localidad":"La Paz","departamento":"La Paz","img":"pat.jpeg"},"geometry":{"type":"Point","coordinates":[-68.12458711,-16.49800327]}},{"type":"Feature","properties":{"nombre":"Abya Ayala","tipo":"Televisión","facebook":"https://www.facebook.com/AbyaYalaTv","localidad":"La Paz","departamento":"La Paz","img":"abyayala.jpeg"},"geometry":{"type":"Point","coordinates":[-68.11020226,-16.5264868]}},{"type":"Feature","properties":{"nombre":"Fides TV","tipo":"Televisión","facebook":"https://www.facebook.com/RadioFidesBolivia","localidad":"La Paz","departamento":"La Paz","img":"fideslp.jpeg"},"geometry":{"type":"Point","coordinates":[-68.13437077,-16.49295477]}},{"type":"Feature","properties":{"nombre":"TV Off","tipo":"Televisión","facebook":"http://tvoffbolivia.blogspot.com/","localidad":"La Paz","departamento":"La Paz","img":"tvoff.png"},"geometry":{"type":"Point","coordinates":[-68.12840813,-16.5124947]},"id":14},{"type":"Feature","properties":{"nombre":"Imagen TV","tipo":"Televisión","facebook":"www.imagentv.info/","localidad":"La Paz","departamento":"La Paz","img":"radio-random.jpeg"},"geometry":{"type":"Point","coordinates":[-68.07973141,-16.54059369]}},{"type":"Feature","properties":{"nombre":"Red Policial","tipo":"Televisión","facebook":"","localidad":"La Paz","departamento":"La Paz","img":"radio-random.jpeg"},"geometry":{"type":"Point","coordinates":[-68.12514539,-16.51136793]},"id":16},{"type":"Feature","properties":{"nombre":"Paceñísima TV","tipo":"Televisión","facebook":"https://www.facebook.com/PTVBolivia","localidad":"La Paz","departamento":"La Paz","img":"ptv.png"},"geometry":{"type":"Point","coordinates":[-68.1362767,-16.49461618]}},{"type":"Feature","properties":{"nombre":"Q'hana","tipo":"Radio","facebook":"https://www.facebook.com/www.qhana.org.bo/","localidad":"La Paz","departamento":"La Paz","img":"qhana.jpeg"},"geometry":{"type":"Point","coordinates":[-68.12921535,-16.51281092]},"id":18},{"type":"Feature","properties":{"nombre":"ZNK","tipo":"Radio","facebook":"https://www.facebook.com/zonikaradioonline","localidad":"La Paz","departamento":"La Paz","img":"zonika.jpeg"},"geometry":{"type":"Point","coordinates":[-68.13374951,-16.50090277]}},{"type":"Feature","properties":{"nombre":"Doble 8","tipo":"Radio","facebook":"https://www.facebook.com/LaDobleDigital","localidad":"La Paz","departamento":"La Paz","img":"ladoble.jpeg"},"geometry":{"type":"Point","coordinates":[-68.13128812,-16.49939173]},"id":20},{"type":"Feature","properties":{"nombre":"París","tipo":"Radio","facebook":"parislapaz@","localidad":"La Paz","departamento":"La Paz","img":"radio-random.jpeg"},"geometry":{"type":"Point","coordinates":[-68.07646451,-16.53142395]}},{"type":"Feature","properties":{"nombre":"Solidaria RKM","tipo":"Radio","facebook":"https://www.facebook.com/RkmBolivia","localidad":"La Paz","departamento":"La Paz","img":"solidaria.jpeg"},"geometry":{"type":"Point","coordinates":[-68.13754009,-16.49974828]}},{"type":"Feature","properties":{"nombre":"Panamericana","tipo":"Radio","facebook":"https://www.facebook.com/NoticiasPanamericana","localidad":"La Paz","departamento":"La Paz","img":"panamericana.png"},"geometry":{"type":"Point","coordinates":[-68.13297888,-16.50171423]}},{"type":"Feature","properties":{"nombre":"Erbol","tipo":"Radio","facebook":"https://www.erbol.com.bo/","localidad":"La Paz","departamento":"La Paz","img":"erbol.png"},"geometry":{"type":"Point","coordinates":[-68.13196519,-16.49605452]}},{"type":"Feature","properties":{"nombre":"Fides","tipo":"Radio","facebook":"http://radiofides.com/es/","localidad":"La Paz","departamento":"La Paz","img":"fideslp.jpeg"},"geometry":{"type":"Point","coordinates":[-68.1343115,-16.49286891]}},{"type":"Feature","properties":{"nombre":"Compañera","tipo":"Radio","facebook":"https://www.facebook.com/radiocompanera106.3/?locale=es_LA","localidad":"La Paz","departamento":"La Paz","img":"rcm.jpeg"},"geometry":{"type":"Point","coordinates":[-68.1282152,-16.50834236]},"id":26},{"type":"Feature","properties":{"nombre":"Gente","tipo":"Radio","facebook":"https://www.facebook.com/radiogentebolivia/?locale=es_LA","localidad":"La Paz","departamento":"La Paz","img":"gentelp.jpeg"},"geometry":{"type":"Point","coordinates":[-68.12365236,-16.49696341]}},{"type":"Feature","properties":{"nombre":"Deseo","tipo":"Radio","facebook":"https://www.facebook.com/radiodeseo103.3?locale=es_LA","localidad":"La Paz","departamento":"La Paz","img":"rdeseo.jpeg"},"geometry":{"type":"Point","coordinates":[-68.1299631,-16.50702595]},"id":28},{"type":"Feature","properties":{"nombre":"Éxito","tipo":"Radio","facebook":"https://www.exitonoticias.com.bo/","localidad":"La Paz","departamento":"La Paz","img":"exito.png"},"geometry":{"type":"Point","coordinates":[-68.12143153,-16.49502377]}},{"type":"Feature","properties":{"nombre":"Mar","tipo":"Radio","facebook":"","localidad":"La Paz","departamento":"La Paz","img":"radio-random.jpeg"},"geometry":{"type":"Point","coordinates":[-68.13419762,-16.4927422]}},{"type":"Feature","properties":{"nombre":"Melodía","tipo":"Radio","facebook":"https://www.facebook.com/radiomelodia991","localidad":"La Paz","departamento":"La Paz","img":"melodialp.jpeg"},"geometry":{"type":"Point","coordinates":[-68.10684754,-16.52755023]}},{"type":"Feature","properties":{"nombre":"Stereo 97","tipo":"Radio","facebook":"https://www.facebook.com/Stereo97Bolivia/","localidad":"La Paz","departamento":"La Paz","img":"stereolp.jpeg"},"geometry":{"type":"Point","coordinates":[-68.10682777,-16.52756912]}},{"type":"Feature","properties":{"nombre":"Patria Nueva","tipo":"Radio","facebook":"https://www.facebook.com/RedPatriaNuevaOficial/","localidad":"La Paz","departamento":"La Paz","img":"illimani.jpeg"},"geometry":{"type":"Point","coordinates":[-68.13243562,-16.49961276]},"id":33},{"type":"Feature","properties":{"nombre":"Estelar","tipo":"Radio","facebook":"https://www.facebook.com/RadioEstelar925","localidad":"La Paz","departamento":"La Paz","img":"estelar.jpeg"},"geometry":{"type":"Point","coordinates":[-68.12554215,-16.50993878]},"id":34},{"type":"Feature","properties":{"nombre":"RCN","tipo":"Radio","facebook":"www.rcnradio.com","localidad":"La Paz","departamento":"La Paz","img":"radio-random.jpeg"},"geometry":{"type":"Point","coordinates":[-68.13488103,-16.49686416]}},{"type":"Feature","properties":{"nombre":"ATB Radio","tipo":"Radio","facebook":"http://www.atb.com.bo/radio","localidad":"La Paz","departamento":"La Paz","img":"atbdig.png"},"geometry":{"type":"Point","coordinates":[-68.11999878,-16.50343073]}},{"type":"Feature","properties":{"nombre":"Metropolitana","tipo":"Radio","facebook":"https://www.facebook.com/MetropolitanaLaRadioDelPueblo/","localidad":"La Paz","departamento":"La Paz","img":"metropolitana.png"},"geometry":{"type":"Point","coordinates":[-68.13123586,-16.49951287]},"id":37},{"type":"Feature","properties":{"nombre":"Laser 98","tipo":"Radio","facebook":"http://www.radiolaser98.com/","localidad":"La Paz","departamento":"La Paz","img":"radio-random.jpeg"},"geometry":{"type":"Point","coordinates":[-68.13440613,-16.49304678]}},{"type":"Feature","properties":{"nombre":"El Extra","tipo":"Prensa Escrita","facebook":"https://www.facebook.com/p/EXTRA-100028848326946/","localidad":"La Paz","departamento":"La Paz","img":"extra.jpeg"},"geometry":{"type":"Point","coordinates":[-68.07913496,-16.548269]}},{"type":"Feature","properties":{"nombre":"El Diario","tipo":"Prensa Escrita","facebook":"https://www.facebook.com/eldiario.bolivia","localidad":"La Paz","departamento":"La Paz","img":"eldiario.jpeg"},"geometry":{"type":"Point","coordinates":[-68.13375721,-16.50004218]}},{"type":"Feature","properties":{"nombre":"Periódico Ahora el Pueblo","tipo":"Prensa Escrita","facebook":"https://www.facebook.com/AhoraElPueblo/","localidad":"La Paz","departamento":"La Paz","img":"aep.jpeg"},"geometry":{"type":"Point","coordinates":[-68.13369721,-16.49690555]}},{"type":"Feature","properties":{"nombre":"La Razón","tipo":"Prensa Escrita","facebook":"https://www.facebook.com/LaRazonBolivia","localidad":"La Paz","departamento":"La Paz","img":"larazon.png"},"geometry":{"type":"Point","coordinates":[-68.0788359,-16.54849173]}},{"type":"Feature","properties":{"nombre":"Página Siete","tipo":"Prensa Escrita","facebook":"https://www.facebook.com/paginasiete","localidad":"La Paz","departamento":"La Paz","img":"p7.jpeg"},"geometry":{"type":"Point","coordinates":[-68.06823201,-16.54151704]}},{"type":"Feature","properties":{"nombre":"Jornada","tipo":"Prensa Escrita","facebook":"https://www.facebook.com/jornada","localidad":"La Paz","departamento":"La Paz","img":"jornada.jpeg"},"geometry":{"type":"Point","coordinates":[-68.13508322,-16.49534642]}},{"type":"Feature","properties":{"nombre":"Revista Oxígeno","tipo":"Medio Digital","facebook":"https://www.facebook.com/oxigeno.bo/?locale=es_LA","localidad":"La Paz","departamento":"La Paz","img":"oxigeno.jpeg"},"geometry":{"type":"Point","coordinates":[-68.11859063,-16.50186045]}},{"type":"Feature","properties":{"nombre":"EFE","tipo":"Medio Digital","facebook":"http://www.efe.es/","localidad":"La Paz","departamento":"La Paz","img":"radio-random.jpeg"},"geometry":{"type":"Point","coordinates":[-68.12643398,-16.51182917]},"id":46},{"type":"Feature","properties":{"nombre":"ANF","tipo":"Medio Digital","facebook":"https://www.facebook.com/ANFidesBolivia?locale=es_LA","localidad":"La Paz","departamento":"La Paz","img":"anf.jpeg"},"geometry":{"type":"Point","coordinates":[-68.13301172,-16.50436948]}},{"type":"Feature","properties":{"nombre":"Erbol Digital","tipo":"Medio Digital","facebook":"https://www.erbol.com.bo/","localidad":"La Paz","departamento":"La Paz","img":"erbol.png"},"geometry":{"type":"Point","coordinates":[-68.13191323,-16.49615901]}},{"type":"Feature","properties":{"nombre":"Radio La Voz 89.5","localidad":"Montero","departamento":"Santa Cruz","img":"lavozmont.png","facebook":"https://www.facebook.com/people/La-Voz-FM-89/100043327726574/","tipo":"Radio"},"geometry":{"type":"Point","coordinates":[-63.26146210248311,-17.318955732084447]}},{"type":"Feature","properties":{"nombre":"Radio Audio Bosco","localidad":"Montero","departamento":"Santa Cruz","img":"audiobosc.png","facebook":"https://www.facebook.com/AudioBosco/","tipo":"Radio"},"geometry":{"type":"Point","coordinates":[-63.26206918993026,-17.330489841437]}},{"type":"Feature","properties":{"nombre":"Radio Ciudad 101.5 FM","localidad":"Montero","departamento":"Santa Cruz","img":"radiociud.jpeg","facebook":"https://www.facebook.com/ciudadradio.bo/?locale=es_LA","tipo":"Radio"},"geometry":{"type":"Point","coordinates":[-63.250862208370634,-17.338334046428898]}},{"type":"Feature","properties":{"nombre":"Radio Televisión Universal Montero","localidad":"Montero","departamento":"Santa Cruz","img":"universalmont.png","facebook":"https://www.facebook.com/rtumontero/","tipo":"Radio"},"geometry":{"type":"Point","coordinates":[-63.25212558237351,-17.340986353412205]}},{"type":"Feature","properties":{"nombre":"Radio Integración 90.3 FM","localidad":"Montero","departamento":"Santa Cruz","img":"integra.jpeg","facebook":"https://www.facebook.com/integracionfm/?locale=es_LA","tipo":"Radio"},"geometry":{"type":"Point","coordinates":[-63.255805039324215,-17.341378085552023]}},{"type":"Feature","properties":{"nombre":"Radio Católica Carisma 103.1 FM","localidad":"Montero","departamento":"Santa Cruz","img":"catolica.png","facebook":"https://www.facebook.com/radiocatolicacarisma/?locale=es_LA","tipo":"Radio"},"geometry":{"type":"Point","coordinates":[-63.25591347605955,-17.34174942130082]}},{"type":"Feature","properties":{"nombre":"Radio Energy 95.5","localidad":"Montero","departamento":"Santa Cruz","img":"energy.jpeg","facebook":"https://www.facebook.com/RedioEnergy955/","tipo":"Radio"},"geometry":{"type":"Point","coordinates":[-63.25829887237933,-17.341702863227]}},{"type":"Feature","properties":{"nombre":"Radio Turbo MIX 91.5 FM","localidad":"Montero","departamento":"Santa Cruz","img":"turbomix.png","facebook":"https://www.facebook.com/radioturbomixmontero/?locale=es_LA","tipo":"Radio"},"geometry":{"type":"Point","coordinates":[-63.25248562453342,-17.34427375851199]}},{"type":"Feature","properties":{"nombre":"Radio Mundial Montero ","localidad":"Montero","departamento":"Santa Cruz","img":"rmundial.png","facebook":"https://www.facebook.com/RTVMNoticiasMontero/","tipo":"Radio"},"geometry":{"type":"Point","coordinates":[-63.25058138999826,-17.345156398662027]}},{"type":"Feature","properties":{"nombre":"Radio María Auxiliadora","localidad":"Montero","departamento":"Santa Cruz","img":"maux.png","facebook":"https://es-la.facebook.com/radiomariaauxiliadora105/","tipo":"Radio"},"geometry":{"type":"Point","coordinates":[-63.25533277159984,-17.351326184824146]}},{"type":"Feature","properties":{"nombre":"Radio TV Mix 89.9 FM","localidad":"Montero","departamento":"Santa Cruz","img":"mixmont.png","facebook":"https://www.facebook.com/people/RADIO-MIX-899-Montero/100069392006347/?locale=ms_MY","tipo":"Radio"},"geometry":{"type":"Point","coordinates":[-63.248052525277274,-17.35183030784357]}},{"type":"Feature","properties":{"nombre":"Radio Continental 102.3 FM","localidad":"Montero","departamento":"Santa Cruz","img":"contmont.png","facebook":"https://play.google.com/store/apps/details?id=rc.envivo&hl=es_BO&gl=US&pli=1","tipo":"Radio"},"geometry":{"type":"Point","coordinates":[-63.248048367231675,-17.352966148958487]}},{"type":"Feature","properties":{"nombre":"Radio TV Norte","localidad":"Montero","departamento":"Santa Cruz","img":"radio-random.jpeg","facebook":null,"tipo":"Televisión"},"geometry":{"type":"Point","coordinates":[-63.24254304502911,-17.361154826343252]}},{"type":"Feature","properties":{"nombre":"Canal 8 Visión Cruz","localidad":"Montero","departamento":"Santa Cruz","img":"visioncruz.jpeg","facebook":"https://www.facebook.com/noticiasvisioncruz/?locale=es_LA","tipo":"Televisión"},"geometry":{"type":"Point","coordinates":[-63.255951164317594,-17.340933422860388]}},{"type":"Feature","properties":{"nombre":"Canal 57 MGM","localidad":"Montero","departamento":"Santa Cruz","img":"mgm.png","facebook":"https://www.facebook.com/canal57MGM/?locale=es_LA","tipo":"Televisión"},"geometry":{"type":"Point","coordinates":[-63.24960283177289,-17.342687486470027]}},{"type":"Feature","properties":{"nombre":"TV Latina","localidad":"Montero","departamento":"Santa Cruz","img":"tvlatina.png","facebook":"https://www.audiokiss.com/tvlatina/","tipo":"Televisión"},"geometry":{"type":"Point","coordinates":[-63.2640318857318,-17.34342039807062]}},{"type":"Feature","properties":{"nombre":"Radio AudioKiss ","localidad":"Montero","departamento":"Santa Cruz","img":"audiokiss.png","facebook":"https://www.audiokiss.com/audiokiss/","tipo":"Radio"},"geometry":{"type":"Point","coordinates":[-63.26398261700035,-17.343331737057625]}},{"type":"Feature","properties":{"nombre":"Diario Zona Norte","localidad":"Montero","departamento":"Santa Cruz","img":"zonanorte.jpeg","facebook":"https://www.facebook.com/diariozonanorte.2020/","tipo":"Prensa Escrita"},"geometry":{"type":"Point","coordinates":[-63.25308756873849,-17.345300581106457]}},{"type":"Feature","properties":{"nombre":"Montero Noticias","localidad":"Montero","departamento":"Santa Cruz","img":"monteronot.png","facebook":"https://www.facebook.com/monteronoticias/?locale=es_LA","tipo":"Medio Digital"},"geometry":{"type":"Point","coordinates":[-63.25532788904259,-17.348930338905532]}},{"type":"Feature","properties":{"nombre":"Radio El Deber","localidad":"Santa Cruz de la Sierra","departamento":"Santa Cruz","img":"edr.jpeg","facebook":"https://www.facebook.com/eldeberradio","tipo":"Radio"},"geometry":{"type":"Point","coordinates":[-63.1997147295732,-17.76004205728846]}},{"type":"Feature","properties":{"nombre":"Radio FIDES Santa Cruz","localidad":"Santa Cruz de la Sierra","departamento":"Santa Cruz","img":"fideson.png","facebook":"https://www.facebook.com/profile.php?id=100040278325119","tipo":"Radio"},"geometry":{"type":"Point","coordinates":[-63.18565666434479,-17.789838675743084]}},{"type":"Feature","properties":{"nombre":"Radio ATB 89.2 FM 94.0 FM","localidad":"Cochabamba","departamento":"Cochabamba","img":"atbdig.png","facebook":"https://www.atb.com.bo/atb-radio/","tipo":"Radio"},"geometry":{"type":"Point","coordinates":[-66.16534916139233,-17.41383923730993]}},{"type":"Feature","properties":{"nombre":"Radio Autentika de Montero","localidad":"Montero","departamento":"Santa Cruz","img":"autentika.png","facebook":"https://www.facebook.com/profile.php?id=100066444972093","tipo":"Radio"},"geometry":{"type":"Point","coordinates":[-63.24774500831997,-17.33436326848806]}},{"type":"Feature","properties":{"nombre":"Radio Bendita Trinidad","localidad":"Montero","departamento":"Santa Cruz","img":"bendita-trinidadmontero.png","facebook":"https://www.facebook.com/benditatrinidadmonterobolivia/?locale=es_LA","tipo":"Radio"},"geometry":{"type":"Point","coordinates":[-63.252043991612254,-17.32566065924655]}},{"type":"Feature","properties":{"nombre":"Red UNITEL","localidad":"Santa Cruz de la Sierra","departamento":"Santa Cruz","img":"unitel.jpeg","facebook":"https://www.facebook.com/unitelbolivia","tipo":"Radio"},"geometry":{"type":"Point","coordinates":[-63.219778728207345,-17.821098821914063]}},{"type":"Feature","properties":{"nombre":"Red UNO de Bolivia","localidad":"Santa Cruz de la Sierra","departamento":"Santa Cruz","img":"reduno.png","facebook":"https://www.facebook.com/RedUnotv","tipo":"Televisión"},"geometry":{"type":"Point","coordinates":[-63.235282291267325,-17.80914106014798]}},{"type":"Feature","properties":{"nombre":"Radio Televisión Yapacani","localidad":"Yapacani","departamento":"Santa Cruz","img":"radiotv-yapacani.jpeg","facebook":"https://www.facebook.com/RadioYapacani","tipo":"Televisión"},"geometry":{"type":"Point","coordinates":[-63.8819024337686,-17.40236569765858]}},{"type":"Feature","properties":{"nombre":"TV Comunitaria Villa Yapacaní","localidad":"Yapacani","departamento":"Santa Cruz","img":"radio-random.jpeg","facebook":null,"tipo":"Televisión"},"geometry":{"type":"Point","coordinates":[-63.8819077630978,-17.401567451220075]}},{"type":"Feature","properties":{"nombre":"Radio Televisión Ichilo","localidad":"Yapacani","departamento":"Santa Cruz","img":"rtv-ichilo.jpeg","facebook":"https://www.facebook.com/radiotvichilo","tipo":"Televisión"},"geometry":{"type":"Point","coordinates":[-63.88054730617067,-17.40381205258744]}},{"type":"Feature","properties":{"nombre":"Televisión Amboró canal 25","localidad":"Yapacaní","departamento":"Santa Cruz","img":"tvamboro-yapacani.png","facebook":"https://www.facebook.com/TvAmboro","tipo":"Televisión"},"geometry":{"type":"Point","coordinates":[-63.885386097447466,-17.405851240885738]}},{"type":"Feature","properties":{"nombre":"Federación Sindical de Colonizadores y Productores Agropecuarios de Yapacani","localidad":"Yapacani","departamento":"Santa Cruz","img":"radio-random.jpeg","facebook":null,"tipo":"Televisión"},"geometry":{"type":"Point","coordinates":[-63.88192623035884,-17.401678797353753]}},{"type":"Feature","properties":{"nombre":"Canal 11 TV Universitaria UAGRM","localidad":"Santa Cruz de la Sierra","departamento":"Santa Cruz","img":"tvu-scz.jpeg","facebook":"https://www.facebook.com/canal11tvuuagrm/","tipo":"Televisión"},"geometry":{"type":"Point","coordinates":[-63.19749588849473,-17.77767076310103]}},{"type":"Feature","properties":{"nombre":"Radio Televisión Omega","localidad":"Yapacani","departamento":"Santa Cruz","img":"rtvomega-yapacani.jpeg","facebook":"https://www.facebook.com/RadioTelevisonOmega/?locale=es_LA","tipo":"Televisión"},"geometry":{"type":"Point","coordinates":[-63.88072536319186,-17.402054695509833]}},{"type":"Feature","properties":{"nombre":"Asociación Boliviano Japonesa San Juan de Yapacaní","localidad":"San Juan de Yapacaní","departamento":"Santa Cruz","img":"jap.jpg","facebook":"https://abj-sanjuan.org.bo/","tipo":"Televisión"},"geometry":{"type":"Point","coordinates":[-63.846168002523996,-17.291941129761724]}},{"type":"Feature","properties":{"nombre":"Radio Esperanza Aiquile","localidad":"Aiquile","departamento":"Cochabamba","img":"esperanza.jpeg","facebook":"https://www.facebook.com/aiquileradioesperanza","tipo":"Radio"},"geometry":{"type":"Point","coordinates":[-65.17734915597144,-18.204702266560318]}},{"type":"Feature","properties":{"nombre":"Radio Unión Bautista Boliviana","localidad":"Cochabamba","departamento":"Cochabamba","img":"unionbautista-villat.jpeg","facebook":"https://www.facebook.com/profile.php?id=100064776608413","tipo":"Radio"},"geometry":{"type":"Point","coordinates":[-66.1612084539616,-17.396285729196947]}},{"type":"Feature","properties":{"nombre":"Radio Monumental","localidad":"La Paz","departamento":"La Paz","img":"radiomonumental.png","facebook":"https://www.facebook.com/monumentalbo/?locale=es_LA","tipo":"Radio"},"geometry":{"type":"Point","coordinates":[-68.12586582692498,-16.49785086255413]}},{"type":"Feature","properties":{"nombre":"Radio y Televisión Comunitaria Carrasco","localidad":"Ivirgarzama","departamento":"Cochabamba","img":"carrasco.png","facebook":"https://www.facebook.com/RTVCarrasco/?locale=es_LA","tipo":"Televisión"},"geometry":{"type":"Point","coordinates":[-64.85749558064126,-17.033110983428415]}},{"type":"Feature","properties":{"nombre":"Radio Fides Cochabamba","localidad":"Cochabamba","departamento":"Cochabamba","img":"fides2.jpeg","facebook":"https://www.facebook.com/RadioFidesChapare","tipo":"Radio"},"geometry":{"type":"Point","coordinates":[-66.15810615355518,-17.384006344863195]}},{"type":"Feature","properties":{"nombre":"Radio y TV Boyuibe","localidad":"Boyuibe","departamento":"Santa Cruz","img":"radiomilenio-boyuibe.jpeg","facebook":"https://www.facebook.com/radiomilenioboyuibe/","tipo":"Televisión"},"geometry":{"type":"Point","coordinates":[-63.282774982972455,-20.433973261470555]}},{"type":"Feature","properties":{"nombre":"Radio Cruz del Sur 96.7 FM","localidad":"Villa Tunari","departamento":"Cochabamba","img":"cruzdelsur-chapare.jpeg","facebook":"https://www.facebook.com/p/RADIO-CRUZ-DEL-SUR-Villa-14-de-Sep-Chapare-100064899515881","tipo":"Radio"},"geometry":{"type":"Point","coordinates":[-65.347838383154,-16.844773870065907]}},{"type":"Feature","properties":{"nombre":"Radio Bethel 95.5 FM","localidad":"Cochabamba","departamento":"Cochabamba","img":"radiobethel.jpeg","facebook":"https://www.facebook.com/bethelcbba/","tipo":"Radio"},"geometry":{"type":"Point","coordinates":[-66.15674929903847,-17.397258609683107]}},{"type":"Feature","properties":{"nombre":"Radio y Televisión Soberanía del Trópico","localidad":"Villa Tunari","departamento":"Cochabamba","img":"radiosoberania.jpeg","facebook":"https://www.facebook.com/radiosoberania.bo","tipo":"Televisión"},"geometry":{"type":"Point","coordinates":[-65.39808087163806,-16.91473478461704]}},{"type":"Feature","properties":{"nombre":"Radio Kawsachun Coca","localidad":"Lauca Eñe","departamento":"Cochabamba","img":"rkc.jpeg","facebook":"https://www.facebook.com/RadioKawsachunCoca","tipo":"Radio"},"geometry":{"type":"Point","coordinates":[-65.22808883793667,-16.99499672979195]}},{"type":"Feature","properties":{"nombre":"Radio Televisión Claros - RTC","localidad":"Ivirgarzama","departamento":"Cochabamba","img":"radio-random.jpeg","facebook":null,"tipo":"Radio"},"geometry":{"type":"Point","coordinates":[-64.83604479973785,-17.076710501340713]}},{"type":"Feature","properties":{"nombre":"Red CCTV","localidad":"Sacaba","departamento":"Cochabamba","img":"cctv.jpeg","facebook":"https://www.facebook.com/p/Red-CCTv-Cochabamba-100080287069606/","tipo":"Radio"},"geometry":{"type":"Point","coordinates":[-66.10016860124657,-17.392036914065486]}},{"type":"Feature","properties":{"nombre":"Radio y Televisión Universitaria TVU - UMSS","localidad":"Cochabamba","departamento":"Cochabamba","img":"tvu-cochabamba.jpeg","facebook":"https://www.facebook.com/TVUCochabambaOficial","tipo":"Televisión"},"geometry":{"type":"Point","coordinates":[-66.15576202001454,-17.391627242571303]}},{"type":"Feature","properties":{"nombre":"Radio Televisión Monumental RTM","localidad":"Shinahota","departamento":"Cochabamba","img":"rtm.jpeg","facebook":"https://www.facebook.com/profile.php?id=100064940263383&locale=hi_IN","tipo":"Televisión"},"geometry":{"type":"Point","coordinates":[-65.24753750277983,-16.992582583628476]}},{"type":"Feature","properties":{"nombre":"Radio Generación Dinámica","localidad":"Chimoré","departamento":"Cochabamba","img":"radio-random.jpeg","facebook":null,"tipo":"Radio"},"geometry":{"type":"Point","coordinates":[-65.15601180535556,-16.990909348557025]}},{"type":"Feature","properties":{"nombre":"Radio Poder de Dios 95.1 FM","localidad":"Guayaramerín","departamento":"Beni","img":"radio-random.jpeg","facebook":"https://www.facebook.com/guayaramerinriberaltapoderdedios/","tipo":"Radio"},"geometry":{"type":"Point","coordinates":[-65.35912702054742,-10.8286968293948]}},{"type":"Feature","properties":{"nombre":"Sistema de Comunicación el Poder de Dios 95.5 FM","localidad":"Guayaramerín","departamento":"Beni","img":"vdd.jpeg","facebook":"https://www.facebook.com/guayaramerinriberaltapoderdedios/","tipo":"Radio"},"geometry":{"type":"Point","coordinates":[-65.35549421797232,-10.812173717853014]}},{"type":"Feature","properties":{"nombre":"Radiodifusora Bambú 101.1 FM","localidad":"Guayaramerín","departamento":"Beni","img":"guayara-bambu.jpeg","facebook":"https://www.facebook.com/p/Radiodifusora-BAMB%C3%9A-Guayaramer%C3%ADn-100088900763731/","tipo":"Radio"},"geometry":{"type":"Point","coordinates":[-65.35374649906707,-10.818982157458862]}},{"type":"Feature","properties":{"nombre":"Radio Máxima 89.5 FM","localidad":"Riberalta","departamento":"Beni","img":"maxima.jpeg","facebook":"https://www.facebook.com/maximafm8950/","tipo":"Radio"},"geometry":{"type":"Point","coordinates":[-66.0642343901835,-11.002513950204232]}},{"type":"Feature","properties":{"nombre":"Radio Verano 90.3 FM","localidad":"Riberalta","departamento":"Beni","img":"verano.jpeg","facebook":"https://www.facebook.com/people/RADIO-Verano-903/100067796076792/","tipo":"Radio"},"geometry":{"type":"Point","coordinates":[-66.0703097468604,-10.995834275865178]}},{"type":"Feature","properties":{"nombre":"Radio Capital 93.5 FM","localidad":"Riberalta","departamento":"Beni","img":"capital.jpeg","facebook":"https://www.facebook.com/p/Radio-Capital-935-FM-Riberalta-100083128752242","tipo":"Radio"},"geometry":{"type":"Point","coordinates":[-66.03922947930548,-11.013369123238576]}},{"type":"Feature","properties":{"nombre":"Radio Riberalta 94.7 FM","localidad":"Riberalta","departamento":"Beni","img":"rariberal.jpeg","facebook":"https://www.facebook.com/RadioRiberalta94.7FM","tipo":"Radio"},"geometry":{"type":"Point","coordinates":[-66.05078384103969,-11.0131481694509]}},{"type":"Feature","properties":{"nombre":"Radio Verbo de Dios 95.5 FM","localidad":"Riberalta","departamento":"Beni","img":"vbb.png","facebook":"https://www.facebook.com/profile.php?id=100021153351541","tipo":"Radio"},"geometry":{"type":"Point","coordinates":[-66.037388238915,-11.002587312507004]}},{"type":"Feature","properties":{"nombre":"Radio Amazonía 97.5 FM","localidad":"Riberalta","departamento":"Beni","img":"radio-random.jpeg","facebook":"","tipo":"Radio"},"geometry":{"type":"Point","coordinates":[-66.06441129181046,-10.998028325074912]}},{"type":"Feature","properties":{"nombre":"Radio San Miguel 99.1 FM","localidad":"Riberalta","departamento":"Beni","img":"riberalta-sanmiguel.jpeg","facebook":"https://www.facebook.com/radiosanmiguelriberalta/","tipo":"Radio"},"geometry":{"type":"Point","coordinates":[-66.0664750680896,-10.997159917234399]}},{"type":"Feature","properties":{"nombre":"Radio Proyección 98.3 FM","localidad":"Rurrenabaque - Reyes - San Buenaventura","departamento":"Beni","img":"rurre-proyeccion.png","facebook":"https://www.facebook.com/profile.php?id=100063624398326","tipo":"Radio"},"geometry":{"type":"Point","coordinates":[-67.52873091039385,-14.443673687761716]}},{"type":"Feature","properties":{"nombre":"Radioemisora El Faro 97.5 FM","localidad":"Rurrenabaque","departamento":"Beni","img":"rurre-faro.jpeg","facebook":"https://www.facebook.com/missionelfaro/","tipo":"Radio"},"geometry":{"type":"Point","coordinates":[-67.53322742373031,-14.447075993556325]}},{"type":"Feature","properties":{"nombre":"Radio Red de los Pueblos Originarios 99.9 FM","localidad":"Rurrenabaque","departamento":"Beni","img":"rurre-originarios.jpeg","facebook":"https://www.facebook.com/rurre99.9/","tipo":"Radio"},"geometry":{"type":"Point","coordinates":[-67.52391598105022,-14.437770890203979]}},{"type":"Feature","properties":{"nombre":"Radio Ritmo Digital 101.1","localidad":"Reyes","departamento":"Beni","img":"reyes-ritmo.jpeg","facebook":"https://www.facebook.com/Ritmo1011/","tipo":"Radio"},"geometry":{"type":"Point","coordinates":[-67.33617506651348,-14.29790136727513]}},{"type":"Feature","properties":{"nombre":"Radio Latina 95.5 FM","localidad":"San Borja","departamento":"Beni","img":"sborja-latina.jpeg","facebook":"https://www.facebook.com/p/Radio-Latina-955-100063195791893/","tipo":"Radio"},"geometry":{"type":"Point","coordinates":[-66.74709715720303,-14.853434106483888]}},{"type":"Feature","properties":{"nombre":"Radio y Televisión San Ignacio 100.5 FM y canal 11","localidad":"San Ignacio de Moxos","departamento":"Beni","img":"moxos-rtv.jpeg","facebook":"https://www.facebook.com/RTV.SanIgnacioCanal11.FM10.5/","tipo":"Radio"},"geometry":{"type":"Point","coordinates":[-65.64127002065081,-14.995188578633176]}},{"type":"Feature","properties":{"nombre":"Radio Matire 96.9 FM","localidad":"San Ignacio de Moxos","departamento":"Beni","img":"moxos-matire.jpeg","facebook":"https://www.facebook.com/radiomatire/","tipo":"Radio"},"geometry":{"type":"Point","coordinates":[-65.64079215583882,-14.993587401019553]}},{"type":"Feature","properties":{"nombre":"Red de Radio y Televisión Santa Ana 97.1 FM y canal 9","localidad":"Santa Ana de Yacuma","departamento":"Beni","img":"santaana-9.jpeg","facebook":"https://www.facebook.com/saavedrapedrazay/","tipo":"Radio"},"geometry":{"type":"Point","coordinates":[-65.42731689874478,-13.745457539030568]}},{"type":"Feature","properties":{"nombre":"Radio Jarajorechi 105.5 FM","localidad":"Santa Ana de Yacuma","departamento":"Beni","img":"jarajorechi.jpeg","facebook":"https://www.facebook.com/groups/1383923355133247/","tipo":"Radio"},"geometry":{"type":"Point","coordinates":[-65.4249756335966,-13.736791571593898]}},{"type":"Feature","properties":{"nombre":"Radio Iglesia la puerta del Cielo 103.5 FM","localidad":"Santa Ana de Yacuma","departamento":"Beni","img":"puertacielo.jpeg","facebook":"https://www.facebook.com/profile.php?id=100082889740402","tipo":"Radio"},"geometry":{"type":"Point","coordinates":[-65.4322180193143,-13.745452026360354]}},{"type":"Feature","properties":{"nombre":"Radio Saturno 90.7 FM","localidad":"Trinidad","departamento":"Beni","img":"radiosaturno.jpeg","facebook":"https://www.facebook.com/radiosaturno90.7fm","tipo":"Radio"},"geometry":{"type":"Point","coordinates":[-64.89283069224064,-14.835358625470747]}},{"type":"Feature","properties":{"nombre":"Radio Trópico 92.2 FM","localidad":"Trinidad","departamento":"Beni","img":"radiotropico.jpeg","facebook":"https://www.facebook.com/profile.php?id=100077669815741&paipv=0&eav=AfYopE3z3CcueRTqHBPVtnp9fkdxCvzA8AuJlibZfY9QcyeLwroDCbyC3Mpv8kOwkSw","tipo":"Radio"},"geometry":{"type":"Point","coordinates":[-64.87947534071701,-14.825941866914519]}},{"type":"Feature","properties":{"nombre":"Radio el Trinitario 93.7 FM","localidad":"Trinidad","departamento":"Beni","img":"paititi.jpeg","facebook":"https://www.facebook.com/p/RADIO-Trinitario-93-FM-100070254339785","tipo":"Radio"},"geometry":{"type":"Point","coordinates":[-64.91080055618335,-14.842628066670557]}},{"type":"Feature","properties":{"nombre":"Radio Patujú 95.2 FM","localidad":"Trinidad","departamento":"Beni","img":"patuju.jpeg","facebook":"https://www.facebook.com/radiopatuju/?locale=es_LA","tipo":"Radio"},"geometry":{"type":"Point","coordinates":[-64.8867423248353,-14.826401222701122]}},{"type":"Feature","properties":{"nombre":"Radio Pedro Ignacio Muiba 96.1 FM","localidad":"Trinidad","departamento":"Beni","img":"radiopim.jpeg","facebook":"https://www.facebook.com/radioPIM.Bo/","tipo":"Radio"},"geometry":{"type":"Point","coordinates":[-64.90070839655104,-14.838817097781444]}},{"type":"Feature","properties":{"nombre":"Radio Bethel 97 FM","localidad":"Trinidad","departamento":"Beni","img":"trini-bethel.jpeg","facebook":"https://www.facebook.com/profile.php?id=100091467619202&locale=hi_IN&paipv=0&eav=AfZH6E3Oaf-LhEiUrB6mU7rIdqx1iTFQunuv2V7NaUF2Bpe6HNkwiXEVPEkNceRMaR0","tipo":"Radio"},"geometry":{"type":"Point","coordinates":[-64.89379430940114,-14.826205399173432]}},{"type":"Feature","properties":{"nombre":"Radio Melodía 99.1 FM","localidad":"Trinidad","departamento":"Beni","img":"melodia.png","facebook":"https://radiomelodia.fm/","tipo":"Radio"},"geometry":{"type":"Point","coordinates":[-64.89782401636728,-14.84103164259463]}},{"type":"Feature","properties":{"nombre":"Radio Fides Trinidad 98.5 FM","localidad":"Trinidad","departamento":"Beni","img":"trini-fides.jpeg","facebook":"https://www.facebook.com/fidestrinidad/","tipo":"Radio"},"geometry":{"type":"Point","coordinates":[-64.90006484749426,-14.833320878910087]}},{"type":"Feature","properties":{"nombre":"Radiodifusora Tarope 105.7 FM","localidad":"Trinidad","departamento":"Beni","img":"tarope.png","facebook":"https://radiotaropedifusora.radio12345.com/","tipo":"Radio"},"geometry":{"type":"Point","coordinates":[-64.89793771205028,-14.833860170639184]}},{"type":"Feature","properties":{"nombre":"Radio Europea 99.4 FM","localidad":"Trinidad","departamento":"Beni","img":"trini-europea.jpeg","facebook":"https://www.facebook.com/Radio.europea/","tipo":"Radio"},"geometry":{"type":"Point","coordinates":[-64.90495304125334,-14.84084789993652]}},{"type":"Feature","properties":{"nombre":"Radio Universitaria IBARE 100.9 FM","localidad":"Trinidad","departamento":"Beni","img":"ibare.jpeg","facebook":"https://www.facebook.com/ContactoUniversitariobeni","tipo":"Radio"},"geometry":{"type":"Point","coordinates":[-64.89617728224376,-14.81306867966984]}},{"type":"Feature","properties":{"nombre":"Radio Super 101.5 FM","localidad":"Trinidad","departamento":"Beni","img":"trini-super.jpeg","facebook":"https://www.facebook.com/SuperFm101.5","tipo":"Radio"},"geometry":{"type":"Point","coordinates":[-64.9007750265865,-14.82077079320824]}},{"type":"Feature","properties":{"nombre":"Radio La Bruja 107.5 FM","localidad":"Sucre","departamento":"Chuquisaca","img":"radio-bruja.jpeg","facebook":"https://www.facebook.com/labrujafm","tipo":"Radio"},"geometry":{"type":"Point","coordinates":[-65.26039068510042,-19.04337080972705]}},{"type":"Feature","properties":{"nombre":"Radio Antena 2000 88.9 FM","localidad":"Sucre","departamento":"Chuquisaca","img":"radioantena.jpeg","facebook":"https://www.facebook.com/people/Radio-Antena-2000/100063746836017/","tipo":"Radio"},"geometry":{"type":"Point","coordinates":[-65.25501971174603,-19.04408940430038]}},{"type":"Feature","properties":{"nombre":"Radio La Bruja Caliente 89.5 FM","localidad":"Sucre","departamento":"Chuquisaca","img":"brujacaliente.jpeg","facebook":"https://www.facebook.com/labrujacaliente/","tipo":"Radio"},"geometry":{"type":"Point","coordinates":[-65.26046655869428,-19.04331716899854]}},{"type":"Feature","properties":{"nombre":"Radio Correo del Sur 90.1 FM","localidad":"Sucre","departamento":"Chuquisaca","img":"correosur.jpeg","facebook":"https://www.facebook.com/correodelsurradio/","tipo":"Radio"},"geometry":{"type":"Point","coordinates":[-65.2634247232946,-19.043396576959097]}},{"type":"Feature","properties":{"nombre":"Radio Horizontes 91.3 FM","localidad":"Sucre","departamento":"Chuquisaca","img":"horizontes.jpeg","facebook":"https://www.facebook.com/radiohorizontessucre/","tipo":"Radio"},"geometry":{"type":"Point","coordinates":[-65.25312195459804,-19.043019802568196]}},{"type":"Feature","properties":{"nombre":"Radio Milenium 91.9 FM","localidad":"Sucre","departamento":"Chuquisaca","img":"mileniumsucre.jpeg","facebook":"https://www.facebook.com/RadioMileniumSucre/?locale=es_LA","tipo":"Radio"},"geometry":{"type":"Point","coordinates":[-65.25722063759068,-19.046039854033623]}},{"type":"Feature","properties":{"nombre":"Radio Sipas Tambo 92.2 FM","localidad":"Sucre","departamento":"Chuquisaca","img":"Sipas-Tambo-1.jpeg","facebook":"https://losmuros.org/","tipo":"Radio"},"geometry":{"type":"Point","coordinates":[-65.25728078614425,-19.03826964508775]}},{"type":"Feature","properties":{"nombre":"Radio Vida Nueva 93.1 FM","localidad":"Sucre","departamento":"Chuquisaca","img":"vidanuevasucre.jpeg","facebook":"https://www.facebook.com/rvidanueva","tipo":"Radio"},"geometry":{"type":"Point","coordinates":[-65.26376881904862,-19.05007097965479]}},{"type":"Feature","properties":{"nombre":"Radio Universitaria USFX 94.0 FM","localidad":"Sucre","departamento":"Chuquisaca","img":"radiousucre.png","facebook":"https://www.facebook.com/RadioUniversitariaSucre/","tipo":"Televisión"},"geometry":{"type":"Point","coordinates":[-65.24687430794225,-19.046019870351742]}},{"type":"Feature","properties":{"nombre":"Radio Chuquisaca 95.2 FM","localidad":"Sucre","departamento":"Chuquisaca","img":"radiochuquisaca.jpeg","facebook":"https://www.facebook.com/RadioChuquisaca/","tipo":"Radio"},"geometry":{"type":"Point","coordinates":[-65.24162130962428,-19.045959359225222]}},{"type":"Feature","properties":{"nombre":"Radio Encuentro 96.1 FM","localidad":"Sucre","departamento":"Chuquisaca","img":"radioencuentro.jpeg","facebook":"https://www.facebook.com/radioencuentrosucre","tipo":"Radio"},"geometry":{"type":"Point","coordinates":[-65.25876411957837,-19.041419431953628]}},{"type":"Feature","properties":{"nombre":"Radio Arcadia 97.0 FM","localidad":"Sucre","departamento":"Chuquisaca","img":"arcadia.png","facebook":"https://www.facebook.com/radioarcadia97.0/","tipo":"Radio"},"geometry":{"type":"Point","coordinates":[-65.25860228555572,-19.044968862466675]}},{"type":"Feature","properties":{"nombre":"Radio Fides Loyola 98.5 FM","localidad":"Sucre","departamento":"Chuquisaca","img":"fidessucre.jpeg","facebook":"https://www.facebook.com/p/RADIO-LOYOLA-FIDES-SUCRE-100053105275832/","tipo":"Radio"},"geometry":{"type":"Point","coordinates":[-65.2624714182654,-19.046537261575708]}},{"type":"Feature","properties":{"nombre":"Radio Popular 98.8 FM","localidad":"Sucre","departamento":"Chuquisaca","img":"radiopopular.jpeg","facebook":"https://www.facebook.com/RadioPopular98.8FM/","tipo":"Radio"},"geometry":{"type":"Point","coordinates":[-65.25262721527518,-19.040181803426748]}},{"type":"Feature","properties":{"nombre":"Radio Conquistador Sucre 99.1 FM","localidad":"Sucre","departamento":"Chuquisaca","img":"conquistador.jpeg","facebook":"https://www.facebook.com/radioconquistador/","tipo":"Radio"},"geometry":{"type":"Point","coordinates":[-65.26008242315662,-19.045336391324597]}},{"type":"Feature","properties":{"nombre":"Radio La Plata 99.7 FM","localidad":"Sucre","departamento":"Chuquisaca","img":"laplata.png","facebook":"https://www.facebook.com/radiolaplatasucre/","tipo":"Radio"},"geometry":{"type":"Point","coordinates":[-65.25788837481896,-19.050611235879202]}},{"type":"Feature","properties":{"nombre":"Radio Agencia de Información Chuquisaca 100.6 FM","localidad":"Sucre","departamento":"Chuquisaca","img":"agenciachuqui.jpeg","facebook":"https://www.facebook.com/ADICH.Radio/","tipo":"Radio"},"geometry":{"type":"Point","coordinates":[-65.24574146706718,-19.038433067839392]}},{"type":"Feature","properties":{"nombre":"Radio Esmeralda 103.6 FM","localidad":"Sucre","departamento":"Chuquisaca","img":"esmeralda-sucre.jpeg","facebook":"https://www.facebook.com/radio.esmeralda.sucre","tipo":"Radio"},"geometry":{"type":"Point","coordinates":[-65.25271755393857,-19.0372270491426]}},{"type":"Feature","properties":{"nombre":"Radio Boliviana 106.0 FM","localidad":"Sucre","departamento":"Chuquisaca","img":"radioboliviana-sucre.jpeg","facebook":"https://www.facebook.com/radiobolivianasucre/?locale=es_LA","tipo":"Radio"},"geometry":{"type":"Point","coordinates":[-65.24807681508858,-19.047610981061183]}},{"type":"Feature","properties":{"nombre":"Radio Global Sucre 106.9 FM","localidad":"Sucre","departamento":"Chuquisaca","img":"global-sucre.png","facebook":"https://www.facebook.com/radioglobalbolivia/","tipo":"Radio"},"geometry":{"type":"Point","coordinates":[-65.24963287898278,-19.051597458922714]}},{"type":"Feature","properties":{"nombre":"Radio Bethel Aiquile 107.1 FM","localidad":"Aiquile","departamento":"Cochabamba","img":"bethel.jpeg","facebook":"https://www.facebook.com/profile.php?id=100064412570435","tipo":"Radio"},"geometry":{"type":"Point","coordinates":[-65.18797694159545,-18.19867614115165]}},{"type":"Feature","properties":{"nombre":"Radio comunitaria de Aiquile 102.7 FM","localidad":"Aiquile","departamento":"Cochabamba","img":"gamaiquile.jpeg","facebook":"https://www.facebook.com/RadioComunitariaAiquile/","tipo":"Radio"},"geometry":{"type":"Point","coordinates":[-65.18335176899637,-18.202368609535682]}},{"type":"Feature","properties":{"nombre":"Radio Irpa Irpa 89.3 FM","localidad":"Irpa Irpa","departamento":"Cochabamba","img":"radioirpa.jpeg","facebook":"https://www.facebook.com/p/Radio-Irpa-irpa-Concierto-893-Fm-100075993544454/","tipo":"Radio"},"geometry":{"type":"Point","coordinates":[-66.29021017754505,-17.723388460215787]}},{"type":"Feature","properties":{"nombre":"Radio Bethel Capinota 92.1 FM","localidad":"Capinota","departamento":"Cochabamba","img":"bethel-capinota.jpeg","facebook":"https://www.facebook.com/profile.php?id=100083238223645","tipo":"Radio"},"geometry":{"type":"Point","coordinates":[-66.2634121237414,-17.706208981065544]}},{"type":"Feature","properties":{"nombre":"Radio Pentecostal Milagro de Dios 98.5 FM","localidad":"Capinota","departamento":"Cochabamba","img":"pentecostal-capi.jpeg","facebook":"https://www.facebook.com/p/Radio-Pentecostal-Milagro-De-Dios-985-FM-100048855316729/?paipv=0&eav=AfaabWnch354_JwHC7KRzPBDExV-kySZf3_hjSjCxMOWlMV17JutEjIJG5BX_Xv4HtU&_rdr","tipo":"Radio"},"geometry":{"type":"Point","coordinates":[-66.26293891327677,-17.706591742282953]}},{"type":"Feature","properties":{"nombre":"Radio Nuevo Tiempo Cochabamba 88.3 FM","localidad":"Cochabamba","departamento":"Cochabamba","img":"orion-cocha.jpeg","facebook":"https://www.facebook.com/nuevotiempobolivia/","tipo":"Radio"},"geometry":{"type":"Point","coordinates":[-66.16693554215973,-17.366821115032494]}},{"type":"Feature","properties":{"nombre":"Radio Cepja 90.1 FM","localidad":"Cochabamba","departamento":"Cochabamba","img":"cepja.png","facebook":"https://www.facebook.com/RadioCepja/","tipo":"Radio"},"geometry":{"type":"Point","coordinates":[-66.1670366025715,-17.414303252328722]}},{"type":"Feature","properties":{"nombre":"Radio Gigante 91.3 FM","localidad":"Cochabamba","departamento":"Cochabamba","img":"gigante-cb.jpeg","facebook":"https://www.facebook.com/radiogigante91.3fm/","tipo":"Radio"},"geometry":{"type":"Point","coordinates":[-66.15390128339907,-17.40050304265317]}},{"type":"Feature","properties":{"nombre":"Radio Grupo Centro 96.1 FM","localidad":"Cochabamba","departamento":"Cochabamba","img":"centro.jpeg","facebook":"https://www.facebook.com/grupocentro05","tipo":"Radio"},"geometry":{"type":"Point","coordinates":[-66.15951634985436,-17.39052844948226]}},{"type":"Feature","properties":{"nombre":"Radio Kancha Parlaspa 91.9 FM","localidad":"Cochabamba","departamento":"Cochabamba","img":"kanchaparlaspa.jpeg","facebook":"https://www.facebook.com/KanchaParlaspa","tipo":"Radio"},"geometry":{"type":"Point","coordinates":[-66.17661572914683,-17.38403800503319]}},{"type":"Feature","properties":{"nombre":"Radio San Rafael 92.5 FM","localidad":"Cochabamba","departamento":"Cochabamba","img":"rsr.jpeg","facebook":"https://radiosanrafael.com.bo/","tipo":"Radio"},"geometry":{"type":"Point","coordinates":[-66.15808345256782,-17.392624110180535]}},{"type":"Feature","properties":{"nombre":"Radio Bendita Trinidad 92.8 FM","localidad":"Cochabamba","departamento":"Cochabamba","img":"trinidad-cb.jpeg","facebook":"https://www.facebook.com/profile.php?id=100068895596425","tipo":"Radio"},"geometry":{"type":"Point","coordinates":[-66.18348585585078,-17.35969640814629]}},{"type":"Feature","properties":{"nombre":"Radio Estrella 93.1 FM","localidad":"Cochabamba","departamento":"Cochabamba","img":"estrellacb.jpeg","facebook":"https://www.facebook.com/radioestrella93.1/","tipo":"Radio"},"geometry":{"type":"Point","coordinates":[-66.20321331245364,-17.408404857600615]}},{"type":"Feature","properties":{"nombre":"Radio Gente Cochabamba 94.6 FM","localidad":"Cochabamba","departamento":"Cochabamba","img":"gente.jpeg","facebook":"https://www.facebook.com/DiarioGente","tipo":"Radio"},"geometry":{"type":"Point","coordinates":[-66.15971443080483,-17.39681844266167]}},{"type":"Feature","properties":{"nombre":"Radio Fides Cochabamba 94.9 FM","localidad":"Cochabamba","departamento":"Cochabamba","img":"fidescb.jpeg","facebook":"https://www.facebook.com/radiofidescb","tipo":"Radio"},"geometry":{"type":"Point","coordinates":[-66.15791737226223,-17.38400944879153]}},{"type":"Feature","properties":{"nombre":"Radio Urbana 95.2 FM","localidad":"Cochabamba","departamento":"Cochabamba","img":"urbanacb.jpeg","facebook":"https://www.facebook.com/UrbanaBO/","tipo":"Radio"},"geometry":{"type":"Point","coordinates":[-66.16104309404776,-17.385207917566277]}},{"type":"Feature","properties":{"nombre":"Radio Potencia Dinámica 95.8 FM","localidad":"Cochabamba","departamento":"Cochabamba","img":"potencia-dinamica.png","facebook":"https://www.facebook.com/profile.php?id=100092770927026&locale=hi_IN&paipv=0&eav=AfZ6TSvshLLgFF1hzs40RAsPULtat59pDujsgcwyJ7uDdHdT-wG5lv-YCLBbI_1a-I8","tipo":"Radio"},"geometry":{"type":"Point","coordinates":[-66.15329120302826,-17.400056369258962]}},{"type":"Feature","properties":{"nombre":"Radio Mundial Bolivia 97.9 La Paz, 96.7 Cochabamba 87.7 Santa Cruz","localidad":"La Paz","departamento":"La Paz","img":"mundiallp.png","facebook":"https://www.facebook.com/radiomundialbolivia/","tipo":"Radio"},"geometry":{"type":"Point","coordinates":[-68.12823278938885,-16.49752898058739]}},{"type":"Feature","properties":{"nombre":"Radio Ritmo Bolivia 97.3 FM","localidad":"Cochabamba","departamento":"Cochabamba","img":"ritmo.jpeg","facebook":"ttps://www.facebook.com/radioritmobolivia/","tipo":"Radio"},"geometry":{"type":"Point","coordinates":[-66.17502713332333,-17.376128285780823]}},{"type":"Feature","properties":{"nombre":"Radio Pio XII 97.9 FM","localidad":"Cochabamba","departamento":"Cochabamba","img":"pioxii.jpeg","facebook":"https://www.facebook.com/Pio12Cbba/","tipo":"Radio"},"geometry":{"type":"Point","coordinates":[-66.16894728013361,-17.39431968249997]}},{"type":"Feature","properties":{"nombre":"Radio Clásica 100.3 FM","localidad":"Cochabamba","departamento":"Cochabamba","img":"clasicacb.jpeg","facebook":"https://www.facebook.com/radioclasica100.3/","tipo":"Radio"},"geometry":{"type":"Point","coordinates":[-66.15649441271016,-17.376220873722033]}},{"type":"Feature","properties":{"nombre":"Radio Cruz del Sur - Unión Bautista Boliviana 88.9 FM","localidad":"Achacachi","departamento":"La Paz","img":"achacachi-ubb.jpeg","facebook":"https://www.facebook.com/profile.php?id=100064097736880","tipo":"Radio"},"geometry":{"type":"Point","coordinates":[-68.68397247257788,-16.045136922382426]}},{"type":"Feature","properties":{"nombre":"Radio Bethel 96.9 FM","localidad":"Caranavi","departamento":"La Paz","img":"bethelgen.png","facebook":"https://radio-bethel.net/","tipo":"Radio"},"geometry":{"type":"Point","coordinates":[-67.57693920404522,-15.835770173637812]}},{"type":"Feature","properties":{"nombre":"Radio Melodía Yungeña","localidad":"Chulumani","departamento":"La Paz","img":"melodia-yungas.jpeg","facebook":"https://www.facebook.com/p/Radio-Melodia-Yungue%C3%B1a-Chulumani-100059719612980/?locale=es_ES&paipv=0&eav=Afb8D44FtxofUgHbvoJBn6JcKm_2PwhcNHYAN5b6qClY2m7SIiYR-8RmoyMfHQRz9m0&_rdr","tipo":"Radio"},"geometry":{"type":"Point","coordinates":[-67.5298244143498,-16.404574789483704]}},{"type":"Feature","properties":{"nombre":"Radio Copacabana 95.7 FM","localidad":"Copacabana","departamento":"La Paz","img":"radio-copacabana.jpeg","facebook":"https://www.facebook.com/RadioCopacabanalanueva/?locale=es_LA","tipo":"Radio"},"geometry":{"type":"Point","coordinates":[-69.0848317885446,-16.164206451945347]}},{"type":"Feature","properties":{"nombre":"Radio Progreso","localidad":"Palos Blancos","departamento":"La Paz","img":"progreso.jpeg","facebook":"https://www.facebook.com/Rolhee/?locale=es_LA","tipo":"Radio"},"geometry":{"type":"Point","coordinates":[-67.2497003735024,-15.585883446401994]}},{"type":"Feature","properties":{"nombre":"Radio y Televisión Municipal de Palos Blancos 91.3 FM y canal 13","localidad":"Palos Blancos","departamento":"La Paz","img":"municipiopb.jpeg","facebook":"https://www.facebook.com/RTMPalosBlancosOficial?locale=es_LA","tipo":"Televisión"},"geometry":{"type":"Point","coordinates":[-67.24698716513763,-15.582323542627776]}},{"type":"Feature","properties":{"nombre":"Radio Perla Andina Sorata 97.5 FM","localidad":"Sorata","departamento":"La Paz","img":"perla-andina.jpeg","facebook":"https://www.facebook.com/p/Radio-Perlandina-Sorata-975-Fm-Oficial-100063639726975/?locale=es_ES","tipo":"Radio"},"geometry":{"type":"Point","coordinates":[-68.6500789640157,-15.772978938500785]}},{"type":"Feature","properties":{"nombre":"Radio Santa Clara de Sorata 98.3 FM","localidad":"Sorata","departamento":"La Paz","img":"sorata-santaclara.jpeg","facebook":"https://www.facebook.com/RADIOSANTACLARA98.3FM/videos/escucha-radio-santa-clara-983-fm-desde-sorata-bolivia/464574624349650/?locale=sw_KE","tipo":"Radio"},"geometry":{"type":"Point","coordinates":[-68.65040289454103,-15.773958464668468]}},{"type":"Feature","properties":{"nombre":"Radio Comunitaria Norte Titicachi 95.5 FM","localidad":"Titicachi","departamento":"La Paz","img":"titicachi.jpeg","facebook":"https://www.facebook.com/p/Radio-Norte-955-FM-100063618720672/","tipo":"Radio"},"geometry":{"type":"Point","coordinates":[-68.8247499958457,-15.50786853458672]}},{"type":"Feature","properties":{"nombre":"Radio Fama 97.5 FM","localidad":"Viacha","departamento":"La Paz","img":"fama-viacha.jpeg","facebook":"https://www.facebook.com/photo/?fbid=368748338596768&set=a.368748291930106","tipo":"Radio"},"geometry":{"type":"Point","coordinates":[-68.30164268495847,-16.653007230587434]}},{"type":"Feature","properties":{"nombre":"Radio Letanias 102.3 FM","localidad":"Viacha","departamento":"La Paz","img":"letanias.jpeg","facebook":"https://www.facebook.com/RadioLetaniasViacha/?locale=es_LA","tipo":"Radio"},"geometry":{"type":"Point","coordinates":[-68.30067763682528,-16.645854174884448]}},{"type":"Feature","properties":{"nombre":"Radio Plutón 90.3 FM","localidad":"El Alto","departamento":"La Paz","img":"pluton.png","facebook":"https://www.facebook.com/profile.php?id=100063849713191&locale=co_FR","tipo":"Radio"},"geometry":{"type":"Point","coordinates":[-68.25333424633882,-16.48595211271102]}},{"type":"Feature","properties":{"nombre":"Radio Pachamama 106.0 FM","localidad":"El Alto","departamento":"La Paz","img":"pachamama.png","facebook":"https://www.facebook.com/RadioPachamama106FM/","tipo":"Radio"},"geometry":{"type":"Point","coordinates":[-68.17192178760571,-16.499711652975492]}},{"type":"Feature","properties":{"nombre":"Radio Majestad 105.7 FM","localidad":"El Alto","departamento":"La Paz","img":"majestad.jpeg","facebook":"https://www.facebook.com/majestad105.7/","tipo":"Radio"},"geometry":{"type":"Point","coordinates":[-68.150759737414,-16.526562238372733]}},{"type":"Feature","properties":{"nombre":"Radio Astro 89.5 FM","localidad":"Challapata","departamento":"Oruro","img":"astroch.jpeg","facebook":"https://www.facebook.com/radiofmastro/?locale=es_LA","tipo":"Radio"},"geometry":{"type":"Point","coordinates":[-66.77253852872666,-18.900451292371358]}},{"type":"Feature","properties":{"nombre":"Radio Nacional Huanuni 94.5 FM","localidad":"Huanuni","departamento":"Oruro","img":"nal-huanuni.jpeg","facebook":"https://www.facebook.com/RadioNacionalDeHuanuni/","tipo":"Radio"},"geometry":{"type":"Point","coordinates":[-66.83249381966127,-18.28561923196314]}},{"type":"Feature","properties":{"nombre":"Radio Fides Oruro 88.9 FM","localidad":"Oruro","departamento":"Oruro","img":"fides-or.jpeg","facebook":"https://www.facebook.com/oruroradiofides/","tipo":"Radio"},"geometry":{"type":"Point","coordinates":[-67.1141864217227,-17.969582023368304]}},{"type":"Feature","properties":{"nombre":"Radio y Televisión Universitaria UTO 90.4 FM","localidad":"Oruro","departamento":"Oruro","img":"uto.jpeg","facebook":"https://www.facebook.com/RTVUTO/","tipo":"Televisión"},"geometry":{"type":"Point","coordinates":[-67.10820365761262,-17.967529447086093]}},{"type":"Feature","properties":{"nombre":"Radio WKM 91.5 FM","localidad":"Oruro","departamento":"Oruro","img":"wkm.png","facebook":"https://www.facebook.com/WKMRadio/?locale=es_LA","tipo":"Radio"},"geometry":{"type":"Point","coordinates":[-67.11654832229131,-17.96942881758001]}},{"type":"Feature","properties":{"nombre":"Radio Voluntad de Dios 91.6 FM","localidad":"Oruro","departamento":"Oruro","img":"voluntador.jpeg","facebook":"https://www.facebook.com/VoluntaddeDiosOficial/","tipo":"Radio"},"geometry":{"type":"Point","coordinates":[-67.11605756237205,-17.936355896444283]}},{"type":"Feature","properties":{"nombre":"Radio Pio XII 99.7 FM","localidad":"Oruro","departamento":"Oruro","img":"pior.jpeg","facebook":"https://www.facebook.com/red.pioxiioruro","tipo":"Radio"},"geometry":{"type":"Point","coordinates":[-67.11867446877763,-17.96832999988618]}},{"type":"Feature","properties":{"nombre":"JHV Radio 93.7 FM","localidad":"Oruro","departamento":"Oruro","img":"jhv.jpeg","facebook":"https://www.facebook.com/jhvoruro/?locale=es_LA","tipo":"Radio"},"geometry":{"type":"Point","coordinates":[-67.11566674559523,-17.9734708397024]}},{"type":"Feature","properties":{"nombre":"Radio Mediterraneo 96.4 FM","localidad":"Oruro","departamento":"Oruro","img":"meditor.jpeg","facebook":"https://www.facebook.com/mediterraneofm/?locale=es_LA","tipo":"Radio"},"geometry":{"type":"Point","coordinates":[-67.10980822731723,-17.958733416013402]}},{"type":"Feature","properties":{"nombre":"Radio Coral 91.6 FM","localidad":"Oruro","departamento":"Oruro","img":"coralor.jpeg","facebook":"https://www.facebook.com/profile.php?id=100083386110049","tipo":"Radio"},"geometry":{"type":"Point","coordinates":[-67.11093621378582,-17.96631378244757]}},{"type":"Feature","properties":{"nombre":"Radio Concierto 98.5 FM","localidad":"Oruro","departamento":"Oruro","img":"concierto.png","facebook":"https://www.facebook.com/RadioConciertoBolivia","tipo":"Radio"},"geometry":{"type":"Point","coordinates":[-67.11119136826167,-17.976949644163767]}},{"type":"Feature","properties":{"nombre":"Liberación Radio Tv FM 100.9 ","localidad":"Oruro","departamento":"Oruro","img":"libor.jpeg","facebook":"https://www.facebook.com/p/Liberaci%C3%B3n-Radio-Tv-FM-1009-100063667892390/?paipv=0&eav=AfZ3-rco1nubwzjVhV2UhMle_Bppqhu3sbWUPDWJ8Z5mMfnEzqwSwwGFKhKdHDSrIZo&_rdr","tipo":"Radio"},"geometry":{"type":"Point","coordinates":[-67.11428439781093,-17.97200776547733]}},{"type":"Feature","properties":{"nombre":"Periódico La Patria","localidad":"Oruro","departamento":"Oruro","img":"patriaor.jpeg","facebook":"https://www.facebook.com/watch/LaPatriaBolivia/","tipo":"Prensa Escrita"},"geometry":{"type":"Point","coordinates":[-67.11789427428218,-17.97152136049715]}},{"type":"Feature","properties":{"nombre":"Radio Bethel Cobija 94.0 FM","localidad":"Cobija","departamento":"Pando","img":"bethelgen.png","facebook":"https://www.facebook.com/people/Movimiento-Misionero-Mundial-Cobija-Pando/100068486482249/","tipo":"Radio"},"geometry":{"type":"Point","coordinates":[-68.7710188695189,-11.014774918632085]}},{"type":"Feature","properties":{"nombre":"Radio Pando 88.6 FM","localidad":"Cobija","departamento":"Pando","img":"rpando.jpeg","facebook":"https://www.facebook.com/radiopandofm/?locale=es_LA","tipo":"Radio"},"geometry":{"type":"Point","coordinates":[-68.76883890839238,-11.031074563544436]}},{"type":"Feature","properties":{"nombre":"Radio Perla del Acre 91.3 FM","localidad":"Cobija","departamento":"Pando","img":"perla-acre.jpeg","facebook":"https://www.facebook.com/radioperladelacre/?locale=es_LA","tipo":"Radio"},"geometry":{"type":"Point","coordinates":[-68.76097960101623,-11.027291037762836]}},{"type":"Feature","properties":{"nombre":"Radio Galana 93.9 FM","localidad":"Cobija","departamento":"Pando","img":"galana.jpeg","facebook":"https://www.facebook.com/RadioGalanaBolivia/?locale=es_LA","tipo":"Radio"},"geometry":{"type":"Point","coordinates":[-68.77844961997687,-11.026255032233479]}},{"type":"Feature","properties":{"nombre":"Radio Frontera Norte 94.9 FM","localidad":"Cobija","departamento":"Pando","img":"fronteran.jpeg","facebook":"https://www.facebook.com/p/Radio-Frontera-Norte-949-100063204430732/","tipo":"Radio"},"geometry":{"type":"Point","coordinates":[-68.75677941498665,-11.017631780730383]}},{"type":"Feature","properties":{"nombre":"Radio María Pando 95.5 FM","localidad":"Cobija","departamento":"Pando","img":"mariacob.jpeg","facebook":"https://www.facebook.com/p/Radio-Mar%C3%ADa-955-FM-Cobija-Pando-100079473140312/","tipo":"Radio"},"geometry":{"type":"Point","coordinates":[-68.77083248288994,-11.030153637035312]}},{"type":"Feature","properties":{"nombre":"Radio Líder 98.5 FM","localidad":"Cobija","departamento":"Pando","img":"lidercob.jpeg","facebook":"https://www.facebook.com/radiolidercobija/","tipo":"Radio"},"geometry":{"type":"Point","coordinates":[-68.76995681008928,-11.034623157046113]}},{"type":"Feature","properties":{"nombre":"Radio Universidad Amazónica de Pando 97.9 FM","localidad":"Cobija","departamento":"Pando","img":"ucob.jpeg","facebook":"https://www.facebook.com/universitaria97.9/","tipo":"Radio"},"geometry":{"type":"Point","coordinates":[-68.75787322562594,-11.034703214406619]}},{"type":"Feature","properties":{"nombre":"Radio y Televisión Poder de Dios 103.3 FM","localidad":"Cobija","departamento":"Pando","img":"poderpando.jpeg","facebook":"https://www.facebook.com/PODERDEDIOS.PANDO/?locale=es_LA","tipo":"Televisión"},"geometry":{"type":"Point","coordinates":[-68.75468069840902,-11.026848845819714]}},{"type":"Feature","properties":{"nombre":"Radio Nicolás Suarez (Emisora de las Fuerzas Armadas) 104.2 FM","localidad":"Cobija","departamento":"Pando","img":"nsuarez.jpeg","facebook":"https://www.facebook.com/p/Radio-Nicolas-Suarez-1042-FM-100064660339869/","tipo":"Radio"},"geometry":{"type":"Point","coordinates":[-68.75230599416004,-11.015638987544548]}}]}